name,type,price,address,latitude,longitude
Hotel Montana,HOTEL,8500.00,Rue Cardozo - Pétionville,18.5461,-72.2887
Restaurant Quartier Latin,RESTAURANT,1500.00,18 Rue Pinchinat - Pétionville,18.5125,-72.2854
Musée du Panthéon National,ATTRACTION,250.00,Champ de Mars - Port-au-Prince,18.5392,-72.3378
Café 36,CAFE,400.00,Route de Bourdon,18.5235,-72.2978
Bar Le Refuge,BAR,600.00,Rue Grégoire - Pétion-Ville,18.5140,-72.2860
